[
  {
    "name": "Kingman",
    "url": "http://47.206.153.88:80/mjpg/video.mjpg",
    "lat": 35.17,
    "lon": -114.05,
    "offset": [-180, -150],
    "top": {
      "x": 50,
      "y": 0,
      "w": 50,
      "h": 50,
      "sat": 190,
      "con": 1,
      "hue": 0,
      "br": 1.1
    },
    "bot": {
      "x": 50,
      "y": 300,
      "w": 50,
      "h": 50,
      "sat": 210,
      "con": 1,
      "hue": 0,
      "br": 1.1
    }
  },
  {
    "name": "Bangkok",
    "url": "http://61.91.61.114:8080/cgi-bin/camera?resolution=640&amp;quality=1&amp",
    "lat": 13.76,
    "lon": 100.5,
    "offset": [-40, 10],
    "top": {
      "x": 610,
      "y": 0,
      "w": 30,
      "h": 30,
      "sat": 190,
      "con": 1,
      "hue": 0,
      "br": 1
    },
    "bot": {
      "x": 40,
      "y": 120,
      "w": 30,
      "h": 30,
      "sat": 210,
      "con": 1,
      "hue": 0,
      "br": 1
    }
  },
  {
    "name": "Dortmund",
    "url": "http://87.139.9.247:80/mjpg/video.mjpg",
    "lat": 51.51,
    "lon": 7.47,
    "offset": [-40, -20],
    "top": {
      "x": 0,
      "y": 35,
      "w": 30,
      "h": 30,
      "sat": 160,
      "con": 1,
      "hue": 0,
      "br": 1.1
    },
    "bot": {
      "x": 100,
      "y": 280,
      "w": 30,
      "h": 30,
      "sat": 210,
      "con": 1.2,
      "hue": 0,
      "br": 1
    }
  },
  {
    "name": "Iiyama",
    "url": "http://220.254.144.230:50000/cgi-bin/camera?resolution=640&amp;quality=1&amp;Language=0&",
    "lat": 36.85,
    "lon": 138.37,
    "offset": [-30, 0],
    "top": {
      "x": 605,
      "y": 2,
      "w": 30,
      "h": 30,
      "sat": 160,
      "con": 1.3,
      "hue": 0,
      "br": 0.95
    },
    "bot": {
      "x": 440,
      "y": 50,
      "w": 30,
      "h": 20,
      "sat": 260,
      "con": 1.3,
      "hue": 0,
      "br": 0.9
    }
  },
  {
    "name": "Osaka",
    "url": "http://153.156.235.87/cgi-bin/faststream.jpg?stream=half&fps=15&rand=COUNTER",
    "lat": 34.69,
    "lon": 135.50,
    "offset": [-30, 0],
    "top": {
      "x": 880,
      "y": 1,
      "w": 30,
      "h": 30,
      "sat": 160,
      "con": 1.2,
      "hue": 0,
      "br": 1
    },
    "bot": {
      "x": 1100,
      "y": 300,
      "w": 30,
      "h": 30,
      "sat": 270,
      "con": 1.4,
      "hue": -20,
      "br": 0.9
    }
  },
  {
    "name": "Sydney",
    "url": "http://202.169.114.191:8081/cgi-bin/viewer/video.jpg",
    "lat": -33.867850,
    "lon": 151.207320,
    "offset": [-30, 0],
    "top": {
      "x": 1220,
      "y": 2,
      "w": 30,
      "h": 30,
      "sat": 260,
      "con": 1.3,
      "hue": 0,
      "br": 0.9
    },
    "bot": {
      "x": 140,
      "y": 325,
      "w": 30,
      "h": 30,
      "sat": 260,
      "con": 1.3,
      "hue": 0,
      "br": 0.95
    }
  },
  {
    "name": "Sydney I",
    "url": "http://220.233.144.165:8888/mjpg/video.mjpg",
    "lat": -33.87,
    "lon": 151.20,
    "offset": [-30, 0],
    "top": {
      "x": 700,
      "y": 1,
      "w": 30,
      "h": 30,
      "sat": 180,
      "con": 1.2,
      "hue": 0,
      "br": 1
    },
    "bot": {
      "x": 419,
      "y": 140,
      "w": 30,
      "h": 30,
      "sat": 290,
      "con": 1.4,
      "hue": -20,
      "br": 0.9
    }
  },
  {
    "name": "Desa",
    "url": "http://119.252.169.189:82/snap.jpg?JpegSize=M&JpegCam=1&",
    "lat": -7.47,
    "lon": 108.02,
    "offset": [-30, 0],
    "top": {
      "x": 30,
      "y": 1,
      "w": 30,
      "h": 30,
      "sat": 190,
      "con": 1.2,
      "hue": 0,
      "br": 1
    },
    "bot": {
      "x": 290,
      "y": 60,
      "w": 30,
      "h": 30,
      "sat": 280,
      "con": 1.4,
      "hue": -20,
      "br": 0.9
    }
  },
  {
    "name": "Asahi",
    "url": "http://211.132.61.124/mjpg/video.mjpg",
    "lat": 35.717,
    "lon": 140.65,
    "offset": [-30, 0],
    "top": {
      "x": 630,
      "y": 2,
      "w": 30,
      "h": 30,
      "sat": 260,
      "con": 1.3,
      "hue": 0,
      "br": 0.9
    },
    "bot": {
      "x": 630,
      "y": 220,
      "w": 30,
      "h": 30,
      "sat": 260,
      "con": 1.3,
      "hue": 0,
      "br": 1.2
    }
  },
  {
    "name": "Launceston",
    "url": "http://45.248.50.164/mjpg/video.mjpg",
    "lat": -41.43876,
    "lon": 147.13467,
    "offset": [-30, 0],
    "top": {
      "x": 750,
      "y": 2,
      "w": 30,
      "h": 30,
      "sat": 260,
      "con": 1.3,
      "hue": 0,
      "br": 0.9
    },
    "bot": {
      "x": 1790,
      "y": 280,
      "w": 30,
      "h": 30,
      "sat": 260,
      "con": 1.3,
      "hue": 0,
      "br": 0.95
    }
  },
  {
    "name": "Marciana",
    "url": "http://5.133.99.85:82/cgi-bin/faststream.jpg",
    "lat": 42.793010,
    "lon": 10.168700,
    "offset": [-30, 0],
    "top": {
      "x": 50,
      "y": 32,
      "w": 50,
      "h": 50,
      "sat": 260,
      "con": 1,
      "hue": 0,
      "br": 1
    },
    "bot": {
      "x": 280,
      "y": 180,
      "w": 20,
      "h": 20,
      "sat": 260,
      "con": 1.9,
      "hue": 0,
      "br": 0.9
    }
  },
  {
    "name": "Asahi",
    "url": "http://218.219.228.113/cgi-bin/camera",
    "lat": 35.7170,
    "lon": 40.650,
    "offset": [-30, 0],
    "top": {
      "x": 360,
      "y": 2,
      "w": 30,
      "h": 30,
      "sat": 260,
      "con": 1.2,
      "hue": 0,
      "br": 1
    },
    "bot": {
      "x": 390,
      "y": 285,
      "w": 20,
      "h": 20,
      "sat": 260,
      "con": 1.4,
      "hue": 0,
      "br": 0.95
    }
  },
  {
    "name": "Naples",
    "url": "http://91.231.166.180:85/mjpg/video.mjpg",
    "lat": 40.833330,
    "lon": 14.250000,
    "offset": [-30, 0],
    "top": {
      "x": 10,
      "y": 2,
      "w": 30,
      "h": 30,
      "sat": 260,
      "con": 1.2,
      "hue": 0,
      "br": 0.8
    },
    "bot": {
      "x": 10,
      "y": 268,
      "w": 20,
      "h": 20,
      "sat": 260,
      "con": 1.4,
      "hue": 0,
      "br": 0.95
    }
  },
  {
    "name": "Sorrento",
    "url": "http://82.187.186.77/cgi-bin/faststream.jpg",
    "lat": 40.634637,
    "lon": 14.3884143,
    "offset": [-30, 0],
    "top": {
      "x": 30,
      "y": 150,
      "w": 30,
      "h": 30,
      "sat": 260,
      "con": 1.2,
      "hue": 0,
      "br": 0.8
    },
    "bot": {
      "x": 200,
      "y": 212,
      "w": 23,
      "h": 23,
      "sat": 260,
      "con": 1.4,
      "hue": 0,
      "br": 0.95
    }
  },
  {
    "name": "Jukkasjarvi",
    "url": "http://87.237.210.145/~checkpoi/webcam/icehotel/webcam_icehotel_1_640.jpg",
    "lat": 67.850000,
    "lon": 20.616670,
    "offset": [-30, 0],
    "top": {
      "x": 610,
      "y": 10,
      "w": 30,
      "h": 30,
      "sat": 260,
      "con": 1.2,
      "hue": 0,
      "br": 0.8
    },
    "bot": {
      "x": 425,
      "y": 110,
      "w": 30,
      "h": 30,
      "sat": 260,
      "con": 1.4,
      "hue": 0,
      "br": 0.95
    }
  },
  {
    "name": "Bayonne",
    "url": "http://193.142.128.20/mjpg/video.mjpg",
    "lat": 43.483330,
    "lon": -1.483330,
    "offset": [-30, 0],
    "top": {
      "x": 120,
      "y": 2,
      "w": 30,
      "h": 30,
      "sat": 260,
      "con": 1.2,
      "hue": 0,
      "br": 0.8
    },
    "bot": {
      "x": 1100,
      "y": 290,
      "w": 30,
      "h": 30,
      "sat": 260,
      "con": 1.4,
      "hue": 0,
      "br": 0.95
    }
  },
  {
    "name": "Desa",
    "url": "http://119.252.169.189:86/snap.jpg",
    "lat": -7.474800,
    "lon": 108.016800,
    "offset": [-30, 0],
    "top": {
      "x": 150,
      "y": 55,
      "w": 30,
      "h": 30,
      "sat": 260,
      "con": 1.2,
      "hue": 0,
      "br": 0.8
    },
    "bot": {
      "x": 390,
      "y": 190,
      "w": 30,
      "h": 30,
      "sat": 260,
      "con": 1.4,
      "hue": 0,
      "br": 0.95
    }
  },
  {
    "name": "Santiago",
    "url": "http://200.111.46.186:8084/cgi-bin/faststream.jpg",
    "lat": -33.426280,
    "lon": -70.566560,
    "offset": [-30, 0],
    "top": {
      "x": 20,
      "y": 12,
      "w": 30,
      "h": 30,
      "sat": 260,
      "con": 1.2,
      "hue": 0,
      "br": 0.9
    },
    "bot": {
      "x": 340,
      "y": 100,
      "w": 30,
      "h": 30,
      "sat": 260,
      "con": 1.4,
      "hue": 0,
      "br": 0.95
    }
  },
  {
    "name": "Santiago I",
    "url": "http://200.29.187.28:9000/oneshotimage1",
    "lat": -33.426280,
    "lon": -70.566560,
    "offset": [-30, 0],
    "top": {
      "x": 2,
      "y": 2,
      "w": 35,
      "h": 35,
      "sat": 260,
      "con": 1.2,
      "hue": 0,
      "br": 0.9
    },
    "bot": {
      "x": 400,
      "y": 305,
      "w": 30,
      "h": 30,
      "sat": 260,
      "con": 1.4,
      "hue": 0,
      "br": 0.95
    }
  },
  {
    "name": "Tyumen",
    "url": "http://185.54.238.144:81/webcapture.jpg?command=snap&channel=1",
    "lat": 57.152220,
    "lon": 65.527220,
    "offset": [-30, 0],
    "top": {
      "x": 130,
      "y": 2,
      "w": 30,
      "h": 30,
      "sat": 260,
      "con": 1.2,
      "hue": 0,
      "br": 1
    },
    "bot": {
      "x": 270,
      "y": 210,
      "w": 30,
      "h": 30,
      "sat": 260,
      "con": 1.4,
      "hue": 0,
      "br": 0.95
    }
  },
  {
    "name": "Abingdon",
    "url": "http://217.181.189.201/mjpg/video.mjpg",
    "lat": 51.671090,
    "lon": -1.282780,
    "offset": [-30, 0],
    "top": {
      "x": 10,
      "y": 40,
      "w": 30,
      "h": 30,
      "sat": 260,
      "con": 1.2,
      "hue": 0,
      "br": 1
    },
    "bot": {
      "x": 270,
      "y": 175,
      "w": 30,
      "h": 30,
      "sat": 260,
      "con": 1.4,
      "hue": 0,
      "br": 0.95
    }
  },
  {
    "name": "Drinovci",
    "url": "http://212.39.117.174:8888/mjpg/video.mjpg",
    "lat": 43.355000,
    "lon": 17.353890,
    "offset": [-30, 0],
    "top": {
      "x": 720,
      "y": 30,
      "w": 30,
      "h": 30,
      "sat": 260,
      "con": 1.2,
      "hue": 0,
      "br": 1
    },
    "bot": {
      "x": 1120,
      "y": 200,
      "w": 30,
      "h": 30,
      "sat": 260,
      "con": 1.4,
      "hue": 0,
      "br": 0.95
    }
  },
  {
    "name": "Bergamo",
    "url": "http://88.149.230.87/mjpg/video.mjpg",
    "lat": 45.697980,
    "lon": 9.668950,
    "offset": [-30, 0],
    "top": {
      "x": 10,
      "y": 2,
      "w": 30,
      "h": 30,
      "sat": 260,
      "con": 1.2,
      "hue": 0,
      "br": 1
    },
    "bot": {
      "x": 490,
      "y": 335,
      "w": 30,
      "h": 30,
      "sat": 260,
      "con": 1.4,
      "hue": 0,
      "br": 0.95
    }
  },
  {
    "name": "Le Port",
    "url": "http://165.169.71.172:8083/mjpeg.cgi",
    "lat": -20.937300,
    "lon": 55.291890,
    "offset": [-30, 0],
    "top": {
      "x": 4,
      "y": 4,
      "w": 30,
      "h": 30,
      "sat": 260,
      "con": 1.2,
      "hue": 0,
      "br": 1
    },
    "bot": {
      "x": 540,
      "y": 155,
      "w": 30,
      "h": 30,
      "sat": 260,
      "con": 1.4,
      "hue": 0,
      "br": 0.95
    }
  },
  {
    "name": "Aarau",
    "url": "http://46.14.28.30/cgi-bin/camera",
    "lat": 47.392540,
    "lon": 8.044220,
    "offset": [-30, 0],
    "top": {
      "x": 604,
      "y": 4,
      "w": 30,
      "h": 30,
      "sat": 260,
      "con": 1.2,
      "hue": 0,
      "br": 1
    },
    "bot": {
      "x": 540,
      "y": 125,
      "w": 30,
      "h": 30,
      "sat": 260,
      "con": 1.4,
      "hue": 0,
      "br": 0.95
    }
  },
  {
    "name": "Eindhoven",
    "url": "http://93.117.211.194/mjpg/video.mjpg",
    "lat": 51.440830,
    "lon": 5.477780,
    "offset": [-30, 0],
    "top": {
      "x": 80,
      "y": 21,
      "w": 30,
      "h": 30,
      "sat": 260,
      "con": 1.2,
      "hue": 0,
      "br": 1
    },
    "bot": {
      "x": 780,
      "y": 225,
      "w": 30,
      "h": 30,
      "sat": 260,
      "con": 1.4,
      "hue": 0,
      "br": 0.95
    }
  },
  {
    "name": "Isfahan",
    "url": "http://93.126.1.151/webcapture.jpg?command=snap&channel=1",
    "lat": 32.657220,
    "lon": 51.677610,
    "offset": [-30, 0],
    "top": {
      "x": 1640,
      "y": 2,
      "w": 30,
      "h": 30,
      "sat": 260,
      "con": 1.2,
      "hue": 0,
      "br": 1
    },
    "bot": {
      "x": 1405,
      "y": 40,
      "w": 30,
      "h": 30,
      "sat": 260,
      "con": 1.4,
      "hue": 0,
      "br": 0.95
    }
  },
  {
    "name": "Tehran",
    "url": "http://109.125.133.138/webcapture.jpg?command=snap&channel=1",
    "lat": 35.694390,
    "lon": 51.421510,
    "offset": [-30, 0],
    "top": {
      "x": 880,
      "y": 2,
      "w": 30,
      "h": 30,
      "sat": 260,
      "con": 1.2,
      "hue": 0,
      "br": 1
    },
    "bot": {
      "x": 700,
      "y": 40,
      "w": 30,
      "h": 30,
      "sat": 260,
      "con": 1.4,
      "hue": 0,
      "br": 0.95
    }
  },
  {
    "name": "Tomsk",
    "url": "http://91.216.211.235/snap.jpg?JpegSize=M&JpegCam=1&r=1675411931",
    "lat": 56.500000,
    "lon": 84.966670,
    "offset": [-30, 0],
    "top": {
      "x": 2,
      "y": 70,
      "w": 30,
      "h": 30,
      "sat": 260,
      "con": 1.2,
      "hue": 0,
      "br": 1
    },
    "bot": {
      "x": 200,
      "y": 105,
      "w": 30,
      "h": 30,
      "sat": 260,
      "con": 1.4,
      "hue": 0,
      "br": 0.95
    }
  },
  {
    "name": "Krasnoyarsk",
    "url": "http://188.0.21.142:81/webcapture.jpg?command=snap&channel=1",
    "lat": 56.009720,
    "lon": 92.791670,
    "offset": [-30, 0],
    "top": {
      "x": 51,
      "y": 21,
      "w": 30,
      "h": 30,
      "sat": 260,
      "con": 1.2,
      "hue": 0,
      "br": 1
    },
    "bot": {
      "x": 440,
      "y": 10,
      "w": 40,
      "h": 20,
      "sat": 260,
      "con": 1.4,
      "hue": 0,
      "br": 0.95
    }
  },
  {
    "name": "Novosilikatnyy",
    "url": "http://46.229.73.36:83/webcapture.jpg?command=snap&channel=1",
    "lat": 53.309720,
    "lon": 83.623890,
    "offset": [-30, 0],
    "top": {
      "x": 450,
      "y": 1,
      "w": 30,
      "h": 30,
      "sat": 260,
      "con": 1.2,
      "hue": 0,
      "br": 1
    },
    "bot": {
      "x": 358,
      "y": 100,
      "w": 12,
      "h": 12,
      "sat": 260,
      "con": 1.4,
      "hue": 0,
      "br": 0.95
    }
  },
  {
    "name": "Vinh Long",
    "url": "http://113.161.196.143/webcapture.jpg?command=snap&channel=1",
    "lat": 10.250000,
    "lon": 105.966670,
    "offset": [-30, 0],
    "top": {
      "x": 1,
      "y": 40,
      "w": 30,
      "h": 30,
      "sat": 260,
      "con": 1.2,
      "hue": 0,
      "br": 1
    },
    "bot": {
      "x": 260,
      "y": 80,
      "w": 30,
      "h": 20,
      "sat": 260,
      "con": 1.4,
      "hue": 0,
      "br": 0.95
    }
  },
  {
    "name": "Taipei",
    "url": "http://60.245.98.194/webcapture.jpg?command=snap&channel=1",
    "lat": 25.047760,
    "lon": 121.531850,
    "offset": [-30, 0],
    "top": {
      "x": 1200,
      "y": 1,
      "w": 30,
      "h": 30,
      "sat": 260,
      "con": 1.2,
      "hue": 0,
      "br": 0.9
    },
    "bot": {
      "x": 900,
      "y": 190,
      "w": 30,
      "h": 25,
      "sat": 260,
      "con": 1.4,
      "hue": 0,
      "br": 0.95
    }
  },
  {
    "name": "Bien Hoa",
    "url": "http://115.79.209.40:91/webcapture.jpg?command=snap&channel=1",
    "lat": 10.950000,
    "lon": 106.816670,
    "offset": [-30, 0],
    "top": {
      "x": 1,
      "y": 1,
      "w": 30,
      "h": 30,
      "sat": 260,
      "con": 1.2,
      "hue": 0,
      "br": 0.9
    },
    "bot": {
      "x": 580,
      "y": 70,
      "w": 30,
      "h": 35,
      "sat": 260,
      "con": 1.4,
      "hue": 0,
      "br": 0.95
    }
  },
  {
    "name": "Tesero",
    "url": "http://152.89.69.78:8083/cgi-bin/faststream.jpg",
    "lat": 46.28494517129343,
    "lon": 11.51458035464253,
    "offset": [-30, 0],
    "top": {
      "x": 70,
      "y": 12,
      "w": 30,
      "h": 30,
      "sat": 260,
      "con": 1.2,
      "hue": 0,
      "br": 0.9
    },
    "bot": {
      "x": 240,
      "y": 90,
      "w": 30,
      "h": 25,
      "sat": 260,
      "con": 1.4,
      "hue": 0,
      "br": 0.95
    }
  },
  {
    "name": "Moscow",
    "url": "http://213.87.208.111/webcapture.jpg?command=snap&channel=1",
    "lat": 55.752220,
    "lon": 37.615560,
    "offset": [-30, 0],
    "top": {
      "x": 178,
      "y": 1,
      "w": 30,
      "h": 30,
      "sat": 260,
      "con": 1.2,
      "hue": 0,
      "br": 0.9
    },
    "bot": {
      "x": 330,
      "y": 90,
      "w": 30,
      "h": 30,
      "sat": 260,
      "con": 1.4,
      "hue": 0,
      "br": 0.95
    }
  },
  {
    "name": "Hong Kong",
    "url": "http://14.0.142.145/mjpg/video.mjpg",
    "lat": 22.285520,
    "lon": 114.157690,
    "offset": [-30, 0],
    "top": {
      "x": 10,
      "y": 20,
      "w": 30,
      "h": 30,
      "sat": 260,
      "con": 1.2,
      "hue": 0,
      "br": 0.9
    },
    "bot": {
      "x": 580,
      "y": 120,
      "w": 30,
      "h": 30,
      "sat": 260,
      "con": 1.4,
      "hue": 0,
      "br": 0.95
    }
  },
    {
    "name": "Barcelona",
    "url": "http://185.188.210.15:8080/mjpg/video.mjpg",
    "lat": 41.86799024075849,
    "lon": 2.2848151362333966,
    "offset": [-30, 0],
    "top": {
      "x": 1,
      "y": 1,
      "w": 30,
      "h": 30,
      "sat": 260,
      "con": 1.2,
      "hue": 0,
      "br": 0.9
    },
    "bot": {
      "x": 380,
      "y": 220,
      "w": 30,
      "h": 30,
      "sat": 260,
      "con": 1.4,
      "hue": 0,
      "br": 0.95
    }
  },
  {
    "name": "Port Louis",
    "url": "http://102.220.76.49:81/cgi-bin/viewer/video.jpg?r=1675419737",
    "lat": -20.161940,
    "lon": 57.498890,
    "offset": [-30, 0],
    "top": {
      "x": 1,
      "y": 1,
      "w": 30,
      "h": 30,
      "sat": 260,
      "con": 1.2,
      "hue": 0,
      "br": 0.9
    },
    "bot": {
      "x": 890,
      "y": 550,
      "w": 30,
      "h": 30,
      "sat": 260,
      "con": 1.4,
      "hue": 0,
      "br": 0.95
    }
  },
  {
    "name": "Lewis",
    "url": "http://209.203.132.26/nph-jpeg.cgi",
    "lat": 37.499553,
    "lon": -108.673580,
    "offset": [-30, 0],
    "top": {
      "x": 900,
      "y": 50,
      "w": 30,
      "h": 30,
      "sat": 260,
      "con": 1.2,
      "hue": 0,
      "br": 0.9
    },
    "bot": {
      "x": 100,
      "y": 550,
      "w": 35,
      "h": 25,
      "sat": 260,
      "con": 1.4,
      "hue": 0,
      "br": 0.95
    }
  },
  {
    "name": "Lewis",
    "url": "http://71.95.110.201/SnapshotJPEG?Resolution=640x480&amp;Quality=Clarity&amp",
    "lat": 45.594560,
    "lon": -121.178680,
    "offset": [-30, 0],
    "top": {
      "x": 5,
      "y": 10,
      "w": 30,
      "h": 30,
      "sat": 260,
      "con": 1.2,
      "hue": 0,
      "br": 0.9
    },
    "bot": {
      "x": 360,
      "y": 110,
      "w": 30,
      "h": 30,
      "sat": 260,
      "con": 1.4,
      "hue": 0,
      "br": 0.95
    }
  },
  {
    "name": "Lovundvika",
    "url": "http://bjarneweb.hopto.org/axis-cgi/mjpg/video.cgi",
    "lat": 60.933300,
    "lon": 10.700000,
    "offset": [-30, 0],
    "top": {
      "x": 605,
      "y": 25,
      "w": 30,
      "h": 30,
      "sat": 160,
      "con": 1.3,
      "hue": 0,
      "br": 0.95
    },
    "bot": {
      "x": 240,
      "y": 400,
      "w": 30,
      "h": 30,
      "sat": 260,
      "con": 1.3,
      "hue": 0,
      "br": 0.9
    }
  }
]
